[
    {
      "start": "10:00",
      "end": "11:00",
      "price": "260円〜",
      "abstract": "お好みのドリンクに、グリルサンド1/2がつきます。ドリンク代(260円～)のみです。「ランチ」には「ガレット」3種類。「グリルサンドランチ」もございます。",
      "presenter": "cafe PLAT Costa-Rica",
      "room": "cafe PLAT Costa-Rica",
      "title": "駅から好アクセス ＰＬＡＴでモーニング",
      "image": "http://hmgs.jp/platcostarica/001.jpg",
      "link": "http://hmgs.jp/platcostarica/",
      "lat": 34.760617,
      "lon": 137.3819759
    },
    {
      "start": "8:00",
      "end": "11:00",
      "price": "ドリンク代＋200円",
      "abstract": "モーニングで、自家製焼き立てパンや自家製ヨーグルト（ジャムも自家製）などを味わえます。自家製パン販売も。豊橋駅西口徒歩5分。",
      "presenter": "パン茶家 わおん",
      "room": "パン茶家 わおん",
      "title": "焼きたてパンなど自家製メニューがおいしい",
      "image": "http://hmgs.jp/waon/001.jpg",
      "link": "http://hmgs.jp/waon/",
      "lat": 34.7600614,
      "lon": 137.3806038
    },
    {
      "start": "8:30",
      "end": "15:00",
      "price": "500円",
      "abstract": "ブランチセットなどのメニューをどうぞ。豊橋名産･うずらの卵 食べ放題！　障がいのある仲間達と手作り。童里夢畑の野菜（基本無農薬）も使用。",
      "presenter": "cafe 奏(かなで)",
      "room": "cafe 奏(かなで)",
      "title": "のんびりゆったり石巻山を眺めて",
      "image": "http://hmgs.jp/kanade/001.jpg",
      "link": "http://hmgs.jp/kanade/",
      "lat": 34.7835299,
      "lon": 137.43985
    },
    {
      "start": "8:00",
      "end": "11:30",
      "price": "400円",
      "abstract": "のんびり、くつろいでいただける場所をご提供。お食事や貸ギャラリー、囲碁･将棋などでもご利用頂けます。日曜朝市や歌声喫茶など各種イベントも実施中。",
      "presenter": "喫茶＆ギャラリー 喫茶 早川",
      "room": "喫茶＆ギャラリー 喫茶 早川",
      "title": "古民家風のあたたかい雰囲気",
      "image": "http://hmgs.jp/hayakawa/001.jpg",
      "link": "http://hmgs.jp/hayakawa/",
      "lat": 34.7976864,
      "lon": 137.4360552
    },
    {
      "start": "7:00",
      "end": "11:00",
      "price": "ドリンク代+120円",
      "abstract": "大正初期から続く伝統の朝市と共に愛されているお店です。和食モーニングは、朝市のお客さん向けに生まれました。パングラタンモーニングなどもどうぞ。",
      "presenter": "まちの いどばた 参八通り",
      "room": "まちの いどばた 参八通り",
      "title": "伝統朝市で生まれた｢おかゆモーニング｣が人気",
      "image": "http://hmgs.jp/sanpachidouri/001.jpg",
      "link": "http://hmgs.jp/sanpachidouri/",
      "lat": 34.7668613,
      "lon": 137.4038928
    },
    {
      "start": "8:00",
      "end": "11:00",
      "price": "450円",
      "abstract": "向かいの「パン工房小やけ」から 30種類以上のミニパンが並ぶモーニングです。是非お越しくださいませ!!　昭和をイメージした落ち着ける雰囲気です。",
      "presenter": "昭和の里 れすとらん 夕やけ",
      "room": "昭和の里 れすとらん 夕やけ",
      "title": "懐かしい昭和の雰囲気満載の温かいれすとらん",
      "image": "http://hmgs.jp/yuuyake/001.jpg",
      "link": "http://hmgs.jp/yuuyake/",
      "lat": 34.7735244,
      "lon": 137.4039426
    },
    {
      "start": "8:30",
      "end": "11:00",
      "price": "350円",
      "abstract": "ドリンク代のみで、ドリンク、サラダ、デザート、ゆで卵、タマゴサンド又はバタートーストと盛りだくさん！　日替りランチも、ボリューム満点です。",
      "presenter": "喫茶しらかば",
      "room": "喫茶しらかば",
      "title": "モーニングもランチもボリューム満点",
      "image": "http://hmgs.jp/shirakaba/001.jpg",
      "link": "http://hmgs.jp/shirakaba/",
      "lat": 34.7797338,
      "lon": 137.3820031
    },
    {
      "start": "9:00",
      "end": "11:00",
      "price": "580円",
      "abstract": "トーストにつけて頂くバターは、何と10種類から選べます！　ボリュームたっぷりの「さわやかブランチ」や、スープにこだわったオムライスが好評です。",
      "presenter": "Cafe＆Restaurant 日付変更線",
      "room": "Cafe＆Restaurant 日付変更線",
      "title": "10種類のバターも楽しみなモーニング",
      "image": "http://hmgs.jp/hizuke/001.jpg",
      "link": "http://hmgs.jp/hizuke/",
      "lat": 34.8037079,
      "lon": 137.4381936
    },
    {
      "start": "9:00",
      "end": "11:00",
      "price": "350円",
      "abstract": "モーニングセットはドリンク代で、ドリンク＋ゆで玉子＋トースト＋サラダ(※変更あり）　スタッフは障がい者の家族や本人で、物品販売もどうぞ。",
      "presenter": "喫茶 路面電車",
      "room": "喫茶 路面電車",
      "title": "路面電車の線路沿い あいトピアでひといき",
      "image": "http://hmgs.jp/romendensya/001.jpg",
      "link": "http://hmgs.jp/romendensya/",
      "lat": 34.7659448,
      "lon": 137.4035478
    },
    {
      "start": "9:00",
      "end": "11:00",
      "price": "ドリンク代＋50円",
      "abstract": "レトロな外観、 味わいある木調の内観。モーニングＡセットは、タマゴホットサンドorトースト､ドリンク､サラダ､デザート。 お手製シフォンケーキも人気。",
      "presenter": "珈琲亭 こすたりか 東田店",
      "room": "珈琲亭 こすたりか 東田店",
      "title": "朝のひと時をごゆっくりお過ごし下さい",
      "image": "http://hmgs.jp/costarica/001.jpg",
      "link": "http://hmgs.jp/costarica/",
      "lat": 34.7648203,
      "lon": 137.4176052
    },
    {
      "start": "7:30",
      "end": "11:30",
      "price": "ドリンク代＋200円",
      "abstract": "注文を頂いてから焼き上げるので、暖かくて香ばしくて美味しいと人気のワッフルモーニング。トーストブランチやおにぎりモーニングなどもどうぞ。",
      "presenter": "cafe Au Repos カフェ･オ･ラポ",
      "room": "cafe Au Repos カフェ･オ･ラポ",
      "title": "注文を頂いてから焼くワッフルモーニング",
      "image": "http://hmgs.jp/aurepos/001.jpg",
      "link": "http://hmgs.jp/aurepos/",
      "lat": 34.7345071,
      "lon": 137.4105131
    },
    {
      "start": "9:00",
      "end": "11:00",
      "price": "ドリンク代＋150円",
      "abstract": "2つのＴＶ番組で「新しいおいしさ」と紹介されたチーズカレートーストはダントツ人気。要望にお応えし、パンを厚切りにし凝縮した味をお楽しみください。",
      "presenter": "カレー＆ギャラリー ミューズ",
      "room": "カレー＆ギャラリー ミューズ",
      "title": "浜松カレー35年のおいしさをモーニングでも",
      "image": "http://hmgs.jp/muse/001.jpg",
      "link": "http://hmgs.jp/muse/",
      "lat": 34.7546796,
      "lon": 137.4075041
    },
    {
      "start": "8:00",
      "end": "11:30",
      "price": "650円",
      "abstract": "家族みんなで食事ができる喫茶店。唐揚げなどのAセット､おにぎりなどのBセット､ホットサンドなどのCセット､シホンケーキセット､朝定セットなど。",
      "presenter": "喫茶店 カフェ･プリムラ",
      "room": "喫茶店 カフェ･プリムラ",
      "title": "豊富なセットメニューがお楽しみ",
      "image": "http://hmgs.jp/primula/001.jpg",
      "link": "http://hmgs.jp/primula/",
      "lat": 34.7476607,
      "lon": 137.3996747
    },
    {
      "start": "10:00",
      "end": "11:20",
      "price": "ドリンク代(350円～380円)＋100円",
      "abstract": "くじら山は立岩の地元の呼び方。地域の方に可愛がっていただけるよう名付けました。くじら山モーニングは手作りシフォンケーキとヨーグルトがついた人気メニューです。",
      "presenter": "ギャラリー＆喫茶 くじら山",
      "room": "ギャラリー＆喫茶 くじら山",
      "title": "オリジナルハーブティーも人気のギャラリー＆喫茶",
      "image": "http://hmgs.jp/kujirayama/001.jpg",
      "link": "http://hmgs.jp/kujirayama/",
      "lat": 34.727593,
      "lon": 137.4699305
    },
    {
      "start": "8:00",
      "end": "11:00",
      "price": "ドリンク代＋150円",
      "abstract": "飼っている2頭のやぎの名前が屋号。メイセットなどモーニングサービスにやぎの乳を使ったスープを。ワンちゃんと一緒に外でお茶もできます。",
      "presenter": "森のカフェ メイとバク",
      "room": "森のカフェ メイとバク",
      "title": "飼育している やぎの乳から加工した自家製スープ",
      "image": "http://hmgs.jp/meitobaku/001.jpg",
      "link": "http://hmgs.jp/meitobaku/",
      "lat": 34.7299897,
      "lon": 137.4600173
    },
    {
      "start": "7:00",
      "end": "11:00",
      "price": "ドリンク代＋350円",
      "abstract": "ベーグルサンドモーニング 生ハム＆オニオンなどが人気。今週のカフェ飯､ミックスベリーなどデザートも人気です。明るい店内。座敷もございます。",
      "presenter": "cafe ＋Ｂ",
      "room": "cafe ＋Ｂ",
      "title": "ベーグルサンドのおいしいお店",
      "image": "http://hmgs.jp/plusb/001.jpg",
      "link": "http://hmgs.jp/plusb/",
      "lat": 34.7262334,
      "lon": 137.4222012
    },
    {
      "start": "7:30",
      "end": "11:00",
      "price": "ドリンク代＋220円",
      "abstract": "モーニングＢは、トースト2枚､サラダ､卵､パスタ､デザート。Ａ(サンドイッチなど)、Ｃ(ホットドックなど)、Ｓ(ホットケーキなど)、日替レギュラーもどうぞ。",
      "presenter": "キッチンＣＡＦＥ ＡＬＢＡＴＲＯＳＳ",
      "room": "キッチンＣＡＦＥ ＡＬＢＡＴＲＯＳＳ",
      "title": "パスタやサンドイッチなど朝から満足",
      "image": "http://hmgs.jp/albatross/001.jpg",
      "link": "http://hmgs.jp/albatross/",
      "lat": 34.7897377,
      "lon": 137.3766531
    },
    {
      "start": "9:00",
      "end": "11:00",
      "price": "530円〜",
      "abstract": "炭火焼コーヒー､トースト､ハムサンド､季節のフルーツなど、お飲み物と軽食のお好みメニューをセットで！　豊橋の郷土料理「菜めし田楽」のお店です。",
      "presenter": "なめし田楽 いちょう中野本店",
      "room": "なめし田楽 いちょう中野本店",
      "title": "組合せ自由自在でお好みのメニューセット",
      "image": "http://hmgs.jp/icyou-honten/001.jpg",
      "link": "http://hmgs.jp/icyou-honten/",
      "lat": 34.7387778,
      "lon": 137.3763021
    },
    {
      "start": "8:30",
      "end": "14:00",
      "price": "ドリンク代+100円",
      "abstract": "内容たっぷりで、アイスクリームまで付いているモーニング。愛知大学の近くで、ランチなどメニューも、お財布に嬉しいお手頃価格で頑張っています。",
      "presenter": "喫茶 カチカチ山",
      "room": "喫茶 カチカチ山",
      "title": "愛知大学の学生さん御用達のお店",
      "image": "http://hmgs.jp/kachikachiyama/001.jpg",
      "link": "http://hmgs.jp/kachikachiyama/",
      "lat": 34.7387778,
      "lon": 137.3763021
    }
  ]
