[
    {
      "start": "10:00",
      "end": "11:00",
      "price": "260円〜",
      "abstract": "お好みのドリンクに、グリルサンド1/2がつきます。ドリンク代(260円～)のみです。「ランチ」には「ガレット」3種類。「グリルサンドランチ」もございます。",
      "presenter": "cafe PLAT Costa-Rica",
      "room": "cafe PLAT Costa-Rica",
      "title": "駅から好アクセス ＰＬＡＴでモーニング",
      "image": "http://hmgs.jp/platcostarica/001.jpg",
      "link": "http://hmgs.jp/platcostarica/",
      "lat": 34.760617,
      "lon": 137.3819759
    },
    {
      "start": "8:00",
      "end": "11:00",
      "price": "ドリンク代＋200円",
      "abstract": "モーニングで、自家製焼き立てパンや自家製ヨーグルト（ジャムも自家製）などを味わえます。自家製パン販売も。豊橋駅西口徒歩5分。",
      "presenter": "パン茶家 わおん",
      "room": "パン茶家 わおん",
      "title": "焼きたてパンなど自家製メニューがおいしい",
      "image": "http://hmgs.jp/waon/001.jpg",
      "link": "http://hmgs.jp/waon/",
      "lat": 34.7600614,
      "lon": 137.3806038
    },
    {
      "start": "8:30",
      "end": "15:00",
      "price": "500円",
      "abstract": "ブランチセットなどのメニューをどうぞ。豊橋名産･うずらの卵 食べ放題！　障がいのある仲間達と手作り。童里夢畑の野菜（基本無農薬）も使用。",
      "presenter": "cafe 奏(かなで)",
      "room": "cafe 奏(かなで)",
      "title": "のんびりゆったり石巻山を眺めて",
      "image": "http://hmgs.jp/kanade/001.jpg",
      "link": "http://hmgs.jp/kanade/",
      "lat": 34.7835299,
      "lon": 137.43985
    },
    {
      "start": "8:00",
      "end": "11:30",
      "price": "400円",
      "abstract": "のんびり、くつろいでいただける場所をご提供。お食事や貸ギャラリー、囲碁･将棋などでもご利用頂けます。日曜朝市や歌声喫茶など各種イベントも実施中。",
      "presenter": "喫茶＆ギャラリー 喫茶 早川",
      "room": "喫茶＆ギャラリー 喫茶 早川",
      "title": "古民家風のあたたかい雰囲気",
      "image": "http://hmgs.jp/hayakawa/001.jpg",
      "link": "http://hmgs.jp/hayakawa/",
      "lat": 34.7976864,
      "lon": 137.4360552
    },
    {
      "start": "7:00",
      "end": "11:00",
      "price": "ドリンク代+120円",
      "abstract": "大正初期から続く伝統の朝市と共に愛されているお店です。和食モーニングは、朝市のお客さん向けに生まれました。パングラタンモーニングなどもどうぞ。",
      "presenter": "まちの いどばた 参八通り",
      "room": "まちの いどばた 参八通り",
      "title": "伝統朝市で生まれた｢おかゆモーニング｣が人気",
      "image": "http://hmgs.jp/sanpachidouri/001.jpg",
      "link": "http://hmgs.jp/sanpachidouri/",
      "lat": 34.7668613,
      "lon": 137.4038928
    },
    {
      "start": "8:00",
      "end": "11:00",
      "price": "450円",
      "abstract": "向かいの「パン工房小やけ」から 30種類以上のミニパンが並ぶモーニングです。是非お越しくださいませ!!　昭和をイメージした落ち着ける雰囲気です。",
      "presenter": "昭和の里 れすとらん 夕やけ",
      "room": "昭和の里 れすとらん 夕やけ",
      "title": "懐かしい昭和の雰囲気満載の温かいれすとらん",
      "image": "http://hmgs.jp/yuuyake/001.jpg",
      "link": "http://hmgs.jp/yuuyake/",
      "lat": 34.7735244,
      "lon": 137.4039426
    },
    {
      "start": "8:30",
      "end": "11:00",
      "price": "350円",
      "abstract": "ドリンク代のみで、ドリンク、サラダ、デザート、ゆで卵、タマゴサンド又はバタートーストと盛りだくさん！　日替りランチも、ボリューム満点です。",
      "presenter": "喫茶しらかば",
      "room": "喫茶しらかば",
      "title": "モーニングもランチもボリューム満点",
      "image": "http://hmgs.jp/shirakaba/001.jpg",
      "link": "http://hmgs.jp/shirakaba/",
      "lat": 34.7797338,
      "lon": 137.3820031
    },
    {
      "start": "9:00",
      "end": "11:00",
      "price": "580円",
      "abstract": "トーストにつけて頂くバターは、何と10種類から選べます！　ボリュームたっぷりの「さわやかブランチ」や、スープにこだわったオムライスが好評です。",
      "presenter": "Cafe＆Restaurant 日付変更線",
      "room": "Cafe＆Restaurant 日付変更線",
      "title": "10種類のバターも楽しみなモーニング",
      "image": "http://hmgs.jp/hizuke/001.jpg",
      "link": "http://hmgs.jp/hizuke/",
      "lat": 34.8037079,
      "lon": 137.4381936
    },
    {
      "start": "9:00",
      "end": "11:00",
      "price": "350円",
      "abstract": "モーニングセットはドリンク代で、ドリンク＋ゆで玉子＋トースト＋サラダ(※変更あり）　スタッフは障がい者の家族や本人で、物品販売もどうぞ。",
      "presenter": "喫茶 路面電車",
      "room": "喫茶 路面電車",
      "title": "路面電車の線路沿い あいトピアでひといき",
      "image": "http://hmgs.jp/romendensya/001.jpg",
      "link": "http://hmgs.jp/romendensya/",
      "lat": 34.7659448,
      "lon": 137.4035478
    },
    {
      "start": "9:00",
      "end": "11:00",
      "price": "ドリンク代＋50円",
      "abstract": "レトロな外観、 味わいある木調の内観。モーニングＡセットは、タマゴホットサンドorトースト､ドリンク､サラダ､デザート。 お手製シフォンケーキも人気。",
      "presenter": "珈琲亭 こすたりか 東田店",
      "room": "珈琲亭 こすたりか 東田店",
      "title": "朝のひと時をごゆっくりお過ごし下さい",
      "image": "http://hmgs.jp/costarica/001.jpg",
      "link": "http://hmgs.jp/costarica/",
      "lat": 34.7648203,
      "lon": 137.4176052
    },
    {
      "start": "7:30",
      "end": "11:30",
      "price": "ドリンク代＋200円",
      "abstract": "注文を頂いてから焼き上げるので、暖かくて香ばしくて美味しいと人気のワッフルモーニング。トーストブランチやおにぎりモーニングなどもどうぞ。",
      "presenter": "cafe Au Repos カフェ･オ･ラポ",
      "room": "cafe Au Repos カフェ･オ･ラポ",
      "title": "注文を頂いてから焼くワッフルモーニング",
      "image": "http://hmgs.jp/aurepos/001.jpg",
      "link": "http://hmgs.jp/aurepos/",
      "lat": 34.7345071,
      "lon": 137.4105131
    }
  ]
